{"type": "FeatureCollection", "features": [{"geometry": {"type": "Point", "coordinates": [-92.807795, 41.02713079999999]}, "type": "Feature", "id": null, "properties": {"rating": 4.25, "name": "Albia Brewing Co.", "categories": ["Brewery", "Bar", "Eatery"]}}, {"geometry": {"type": "Point", "coordinates": [-94.2378878, 43.0688532]}, "type": "Feature", "id": null, "properties": {"rating": 4.25, "name": "Billie Jo's", "categories": ["Bar", "Eatery"]}}, {"geometry": {"type": "Point", "coordinates": [-93.46470149999999, 41.6440227]}, "type": "Feature", "id": null, "properties": {"rating": 4.0, "name": "Hy-Vee Wine & Spirits", "categories": ["Store", "Homebrew", "Store"]}}, {"geometry": {"type": "Point", "coordinates": [-91.8651455, 41.7972116]}, "type": "Feature", "id": null, "properties": {"rating": 3.95, "name": "Millstream Brewing Company", "categories": ["Brewery", "Bar"]}}, {"geometry": {"type": "Point", "coordinates": [-93.613011, 42.025363]}, "type": "Feature", "id": null, "properties": {"rating": 4.38, "name": "Chester's Coins & Gifts", "categories": ["Homebrew", "Store"]}}, {"geometry": {"type": "Point", "coordinates": [-93.6182925, 42.02107669999999]}, "type": "Feature", "id": null, "properties": {"rating": 4.37, "name": "Cyclone Liquors", "categories": ["Store"]}}, {"geometry": {"type": "Point", "coordinates": [-93.610834, 42.0251733]}, "type": "Feature", "id": null, "properties": {"rating": 4.07, "name": "DG's Tap House", "categories": ["Bar"]}}, {"geometry": {"type": "Point", "coordinates": [-93.6482667, 42.0208551]}, "type": "Feature", "id": null, "properties": {"rating": 3.65, "name": "Es Tas", "categories": ["Bar", "Eatery"]}}, {"geometry": {"type": "Point", "coordinates": [-93.6670872, 42.0228856]}, "type": "Feature", "id": null, "properties": {"rating": 2.97, "name": "Hy-Vee Wine & Spirits - Ames #1", "categories": ["Store"]}}, {"geometry": {"type": "Point", "coordinates": [-93.609965, 42.022253]}, "type": "Feature", "id": null, "properties": {"rating": 5.0, "name": "Okoboji Grill", "categories": ["Bar", "Eatery"]}}, {"geometry": {"type": "Point", "coordinates": [-93.6109737, 42.0076182]}, "type": "Feature", "id": null, "properties": {"rating": 3.63, "name": "Old Chicago", "categories": ["Bar", "Eatery"]}}, {"geometry": {"type": "Point", "coordinates": [-93.614693, 42.024803]}, "type": "Feature", "id": null, "properties": {"rating": 3.52, "name": "Olde Main Brewing Co. & Restaurant", "categories": ["Brewery", "Bar", "Eatery"]}}, {"geometry": {"type": "Point", "coordinates": [-93.6125136, 42.02488719999999]}, "type": "Feature", "id": null, "properties": {"rating": 3.89, "name": "The London Underground", "categories": ["Bar"]}}, {"geometry": {"type": "Point", "coordinates": [-93.6082023, 41.7289615]}, "type": "Feature", "id": null, "properties": {"rating": "null", "name": "C & S Brew Supply", "categories": ["Store", "Homebrew", "Store"]}}, {"geometry": {"type": "Point", "coordinates": [-93.6097987, 41.7296535]}, "type": "Feature", "id": null, "properties": {"rating": 4.13, "name": "Firetrucker Brewery", "categories": ["Brewery", "Bar"]}}, {"geometry": {"type": "Point", "coordinates": [-93.6238352, 41.7051416]}, "type": "Feature", "id": null, "properties": {"rating": 4.69, "name": "Hy-Vee Wine & Spirits - Ankeny #2", "categories": ["Bar", "Eatery", "Store"]}}, {"geometry": {"type": "Point", "coordinates": [-93.5994046, 41.6863399]}, "type": "Feature", "id": null, "properties": {"rating": "null", "name": "New American Brewing Co.", "categories": ["Brewery"]}}, {"geometry": {"type": "Point", "coordinates": [-90.4911786, 41.5748166]}, "type": "Feature", "id": null, "properties": {"rating": "null", "name": "Crust Stone Oven Pizza", "categories": ["Bar", "Eatery"]}}, {"geometry": {"type": "Point", "coordinates": [-90.5190176, 41.55415989999999]}, "type": "Feature", "id": null, "properties": {"rating": 3.02, "name": "Old Chicago", "categories": ["Bar", "Eatery"]}}, {"geometry": {"type": "Point", "coordinates": [-93.88068009999999, 42.0625916]}, "type": "Feature", "id": null, "properties": {"rating": 4.33, "name": "Boone Valley Brewing", "categories": ["Brewery", "Bar"]}}, {"geometry": {"type": "Point", "coordinates": [-91.1367153, 40.816295]}, "type": "Feature", "id": null, "properties": {"rating": 3.58, "name": "Hy-Vee Wine & Spirits - Burlington #2", "categories": ["Store"]}}, {"geometry": {"type": "Point", "coordinates": [-91.1043385, 40.8087046]}, "type": "Feature", "id": null, "properties": {"rating": 4.21, "name": "Moto's Public House", "categories": ["Bar", "Eatery"]}}, {"geometry": {"type": "Point", "coordinates": [-94.8771095, 42.0686363]}, "type": "Feature", "id": null, "properties": {"rating": 5.0, "name": "Hy-Vee", "categories": ["Store"]}}, {"geometry": {"type": "Point", "coordinates": [-92.45545299999999, 42.517351]}, "type": "Feature", "id": null, "properties": {"rating": 2.8, "name": "Beck's Sports Grill", "categories": ["Bar", "Eatery"]}}, {"geometry": {"type": "Point", "coordinates": [-92.4294279, 42.5123113]}, "type": "Feature", "id": null, "properties": {"rating": 4.25, "name": "Happy's Wine & Spirits", "categories": ["Store"]}}, {"geometry": {"type": "Point", "coordinates": [-92.45612799999999, 42.51718]}, "type": "Feature", "id": null, "properties": {"rating": 2.46, "name": "Hill Street News & Tobacco", "categories": ["Store"]}}, {"geometry": {"type": "Point", "coordinates": [-92.4294279, 42.5123113]}, "type": "Feature", "id": null, "properties": {"rating": 4.03, "name": "Hy-Vee Wine & Spirits", "categories": ["Store"]}}, {"geometry": {"type": "Point", "coordinates": [-92.43717009999999, 42.5220028]}, "type": "Feature", "id": null, "properties": {"rating": 4.06, "name": "Kitchen Wines & Brew Shop", "categories": ["Homebrew", "Store"]}}, {"geometry": {"type": "Point", "coordinates": [-92.43596079999999, 42.5110991]}, "type": "Feature", "id": null, "properties": {"rating": 3.04, "name": "Old Chicago", "categories": ["Bar", "Eatery"]}}, {"geometry": {"type": "Point", "coordinates": [-92.445211, 42.536996]}, "type": "Feature", "id": null, "properties": {"rating": 4.26, "name": "SingleSpeed Brewing", "categories": ["Brewery", "Bar", "Eatery"]}}, {"geometry": {"type": "Point", "coordinates": [-91.659633, 41.975506]}, "type": "Feature", "id": null, "properties": {"rating": 4.19, "name": "Benz Beverage Depot", "categories": ["Store"]}}, {"geometry": {"type": "Point", "coordinates": [-91.666174, 41.9790983]}, "type": "Feature", "id": null, "properties": {"rating": 3.85, "name": "Bricks Bar & Grill", "categories": ["Bar", "Eatery"]}}, {"geometry": {"type": "Point", "coordinates": [-91.62141249999999, 42.025099]}, "type": "Feature", "id": null, "properties": {"rating": 3.47, "name": "Granite City Food & Brewery", "categories": ["Brewery", "Bar", "Eatery"]}}, {"geometry": {"type": "Point", "coordinates": [-91.6986637, 42.0296764]}, "type": "Feature", "id": null, "properties": {"rating": 3.65, "name": "Hy-Vee Wine & Spirits - Cedar Rapids #7", "categories": ["Store"]}}, {"geometry": {"type": "Point", "coordinates": [-91.6603498, 41.9650801]}, "type": "Feature", "id": null, "properties": {"rating": 4.01, "name": "Lion Bridge Brewing Company", "categories": ["Brewery", "Bar", "Eatery"]}}, {"geometry": {"type": "Point", "coordinates": [-91.70456449999999, 41.8910703]}, "type": "Feature", "id": null, "properties": {"rating": 3.34, "name": "Millstream Brewhaus (Eastern Iowa Airport)", "categories": ["Bar", "Eatery"]}}, {"geometry": {"type": "Point", "coordinates": [-91.65846599999999, 41.9702052]}, "type": "Feature", "id": null, "properties": {"rating": 4.4, "name": "Parlor City Pub & Eatery", "categories": ["Bar", "Eatery"]}}, {"geometry": {"type": "Point", "coordinates": [-91.6398165, 42.03517069999999]}, "type": "Feature", "id": null, "properties": {"rating": 3.5, "name": "Third Base Sports Bar & Brewery", "categories": ["Brewery", "Bar", "Eatery"]}}, {"geometry": {"type": "Point", "coordinates": [-91.66638449999999, 41.9784739]}, "type": "Feature", "id": null, "properties": {"rating": 3.5, "name": "White Star Ale House", "categories": ["Bar", "Eatery"]}}, {"geometry": {"type": "Point", "coordinates": [-91.6670282, 41.9782732]}, "type": "Feature", "id": null, "properties": {"rating": "null", "name": "Zins", "categories": ["Bar", "Eatery"]}}, {"geometry": {"type": "Point", "coordinates": [-92.675231, 43.06735]}, "type": "Feature", "id": null, "properties": {"rating": "null", "name": "Hy-Vee Wine & Spirits", "categories": ["Store"]}}, {"geometry": {"type": "Point", "coordinates": [-92.677648, 43.062118]}, "type": "Feature", "id": null, "properties": {"rating": 3.98, "name": "Three C Bistro", "categories": ["Bar", "Eatery"]}}, {"geometry": {"type": "Point", "coordinates": [-93.37838599999999, 43.13709799999999]}, "type": "Feature", "id": null, "properties": {"rating": 4.34, "name": "Lake Time Brewery", "categories": ["Brewery", "Bar"]}}, {"geometry": {"type": "Point", "coordinates": [-90.1931887, 41.8364993]}, "type": "Feature", "id": null, "properties": {"rating": 3.17, "name": "Hy-Vee Wine & Spirits", "categories": ["Store"]}}, {"geometry": {"type": "Point", "coordinates": [-93.7226495, 41.5999841]}, "type": "Feature", "id": null, "properties": {"rating": 3.93, "name": "515 Brewing Company", "categories": ["Brewery", "Bar"]}}, {"geometry": {"type": "Point", "coordinates": [-93.794348, 41.6005111]}, "type": "Feature", "id": null, "properties": {"rating": 3.59, "name": "Granite City Food & Brewery", "categories": ["Brewery", "Bar", "Eatery"]}}, {"geometry": {"type": "Point", "coordinates": [-91.5624721, 41.6826491]}, "type": "Feature", "id": null, "properties": {"rating": 3.88, "name": "30hop", "categories": ["Bar", "Eatery"]}}, {"geometry": {"type": "Point", "coordinates": [-91.5597276, 41.6822688]}, "type": "Feature", "id": null, "properties": {"rating": 3.66, "name": "Backpocket Brewing", "categories": ["Brewery", "Bar", "Eatery"]}}, {"geometry": {"type": "Point", "coordinates": [-91.5655283, 41.672761]}, "type": "Feature", "id": null, "properties": {"rating": 4.83, "name": "Bootleggin' Barzini's", "categories": ["Store"]}}, {"geometry": {"type": "Point", "coordinates": [-91.5918789, 41.6818177]}, "type": "Feature", "id": null, "properties": {"rating": 3.18, "name": "Hy-Vee Wine & Spirits", "categories": ["Store"]}}, {"geometry": {"type": "Point", "coordinates": [-91.58021289999999, 41.6743852]}, "type": "Feature", "id": null, "properties": {"rating": 3.51, "name": "New Pioneer Co-op", "categories": ["Store"]}}, {"geometry": {"type": "Point", "coordinates": [-91.5629216, 41.6683337]}, "type": "Feature", "id": null, "properties": {"rating": 3.5, "name": "Old Chicago", "categories": ["Bar", "Eatery"]}}, {"geometry": {"type": "Point", "coordinates": [-91.559653, 41.6813668]}, "type": "Feature", "id": null, "properties": {"rating": "null", "name": "Vesta", "categories": ["Bar", "Eatery"]}}, {"geometry": {"type": "Point", "coordinates": [-95.845382, 41.2628679]}, "type": "Feature", "id": null, "properties": {"rating": 3.58, "name": "1892 German Bier Haus", "categories": ["Bar", "Eatery"]}}, {"geometry": {"type": "Point", "coordinates": [-95.8256426, 41.2444976]}, "type": "Feature", "id": null, "properties": {"rating": 3.98, "name": "Hy-Vee Wine & Spirits - Council Bluffs #2", "categories": ["Store"]}}, {"geometry": {"type": "Point", "coordinates": [-90.54357499999999, 41.5313299]}, "type": "Feature", "id": null, "properties": {"rating": "null", "name": "Camp McClellan Cellars", "categories": ["Homebrew", "Store"]}}, {"geometry": {"type": "Point", "coordinates": [-90.57218499999999, 41.52055]}, "type": "Feature", "id": null, "properties": {"rating": 3.57, "name": "Front Street Brewery", "categories": ["Brewery", "Bar", "Eatery"]}}, {"geometry": {"type": "Point", "coordinates": [-90.51480579999999, 41.5732666]}, "type": "Feature", "id": null, "properties": {"rating": 3.53, "name": "Granite City Food & Brewery", "categories": ["Brewery", "Bar", "Eatery"]}}, {"geometry": {"type": "Point", "coordinates": [-90.56997199999999, 41.521522]}, "type": "Feature", "id": null, "properties": {"rating": 4.05, "name": "Great River Brewery", "categories": ["Brewery", "Bar"]}}, {"geometry": {"type": "Point", "coordinates": [-90.609236, 41.561196]}, "type": "Feature", "id": null, "properties": {"rating": 2.86, "name": "Hy-Vee - Davenport #2", "categories": ["Store"]}}, {"geometry": {"type": "Point", "coordinates": [-90.6245163, 41.55779990000001]}, "type": "Feature", "id": null, "properties": {"rating": 4.42, "name": "Hy-Vee Wine & Spirits - Davenport #2", "categories": ["Store"]}}, {"geometry": {"type": "Point", "coordinates": [-90.5486174, 41.5549565]}, "type": "Feature", "id": null, "properties": {"rating": 3.87, "name": "Hy-Vee Wine & Spirits - Davenport #3", "categories": ["Store"]}}, {"geometry": {"type": "Point", "coordinates": [-90.51380429999999, 41.577279]}, "type": "Feature", "id": null, "properties": {"rating": 3.25, "name": "Hy-Vee Wine & Spirits - Davenport #4", "categories": ["Store"]}}, {"geometry": {"type": "Point", "coordinates": [-90.61227190000001, 41.5367248]}, "type": "Feature", "id": null, "properties": {"rating": "null", "name": "Hy-Vee Wine & Spirits - Davenport #5", "categories": ["Store"]}}, {"geometry": {"type": "Point", "coordinates": [-91.75285799999999, 43.2870149]}, "type": "Feature", "id": null, "properties": {"rating": 4.26, "name": "From Grain to Glass", "categories": ["Homebrew", "Store"]}}, {"geometry": {"type": "Point", "coordinates": [-91.788927, 43.304434]}, "type": "Feature", "id": null, "properties": {"rating": 3.53, "name": "Oneota Community Food Co-op", "categories": ["Store"]}}, {"geometry": {"type": "Point", "coordinates": [-91.786774, 43.3039138]}, "type": "Feature", "id": null, "properties": {"rating": 4.05, "name": "Rubaiyat", "categories": ["Bar", "Eatery"]}}, {"geometry": {"type": "Point", "coordinates": [-91.78747899999999, 43.304408]}, "type": "Feature", "id": null, "properties": {"rating": 3.62, "name": "T-Bock's Sports Bar & Grill", "categories": ["Bar", "Eatery"]}}, {"geometry": {"type": "Point", "coordinates": [-91.79071040000001, 43.3042375]}, "type": "Feature", "id": null, "properties": {"rating": 4.5, "name": "The Courtyard", "categories": ["Bar", "Eatery"]}}, {"geometry": {"type": "Point", "coordinates": [-91.7970381, 43.3082911]}, "type": "Feature", "id": null, "properties": {"rating": 4.53, "name": "Toppling Goliath Brewing Company", "categories": ["Brewery", "Bar", "Eatery"]}}, {"geometry": {"type": "Point", "coordinates": [-93.6317679, 41.568638]}, "type": "Feature", "id": null, "properties": {"rating": 4.33, "name": "Confluence Brewing Company", "categories": ["Brewery", "Bar"]}}, {"geometry": {"type": "Point", "coordinates": [-93.6208808, 41.5856426]}, "type": "Feature", "id": null, "properties": {"rating": 3.93, "name": "Court Avenue Brewing Company", "categories": ["Brewery", "Bar", "Eatery"]}}, {"geometry": {"type": "Point", "coordinates": [-93.6297845, 41.584315]}, "type": "Feature", "id": null, "properties": {"rating": 3.71, "name": "Django", "categories": ["Bar", "Eatery"]}}, {"geometry": {"type": "Point", "coordinates": [-93.618563, 41.5829394]}, "type": "Feature", "id": null, "properties": {"rating": 4.37, "name": "El Bait Shop", "categories": ["Bar", "Eatery"]}}, {"geometry": {"type": "Point", "coordinates": [-93.63701499999999, 41.583013]}, "type": "Feature", "id": null, "properties": {"rating": 3.91, "name": "Exile Brewing Co.", "categories": ["Brewery", "Bar", "Eatery"]}}, {"geometry": {"type": "Point", "coordinates": [-93.62179979999999, 41.58590239999999]}, "type": "Feature", "id": null, "properties": {"rating": 3.53, "name": "Fong's Pizza", "categories": ["Bar", "Eatery"]}}, {"geometry": {"type": "Point", "coordinates": [-93.620578, 41.583923]}, "type": "Feature", "id": null, "properties": {"rating": 4.2, "name": "Hessen Haus", "categories": ["Bar", "Eatery"]}}, {"geometry": {"type": "Point", "coordinates": [-93.6733909, 41.5996417]}, "type": "Feature", "id": null, "properties": {"rating": 3.93, "name": "Hy-Vee Drugstore / Wine & Spirits", "categories": ["Store"]}}, {"geometry": {"type": "Point", "coordinates": [-93.6645788, 41.5859313]}, "type": "Feature", "id": null, "properties": {"rating": 3.75, "name": "Ingersoll Wine & Spirits", "categories": ["Store"]}}, {"geometry": {"type": "Point", "coordinates": [-93.6128349, 41.578331]}, "type": "Feature", "id": null, "properties": {"rating": 4.07, "name": "Mullets", "categories": ["Bar", "Eatery"]}}, {"geometry": {"type": "Point", "coordinates": [-93.629609, 41.584066]}, "type": "Feature", "id": null, "properties": {"rating": 3.6, "name": "Raccoon River Brewing Company", "categories": ["Brewery", "Bar", "Eatery"]}}, {"geometry": {"type": "Point", "coordinates": [-93.67404379999999, 41.5931214]}, "type": "Feature", "id": null, "properties": {"rating": "null", "name": "The Cheese Shop", "categories": ["Bar", "Eatery"]}}, {"geometry": {"type": "Point", "coordinates": [-93.622084, 41.585429]}, "type": "Feature", "id": null, "properties": {"rating": 4.36, "name": "The Red Monk", "categories": ["Bar"]}}, {"geometry": {"type": "Point", "coordinates": [-93.622084, 41.585429]}, "type": "Feature", "id": null, "properties": {"rating": 4.14, "name": "The Royal Mile", "categories": ["Bar", "Eatery"]}}, {"geometry": {"type": "Point", "coordinates": [-93.6134019, 41.5907176]}, "type": "Feature", "id": null, "properties": {"rating": 4.22, "name": "Zombie Burger + Drink Lab", "categories": ["Bar", "Eatery"]}}, {"geometry": {"type": "Point", "coordinates": [-90.667154, 42.49672]}, "type": "Feature", "id": null, "properties": {"rating": 4.58, "name": "Bluff Street Brew Haus", "categories": ["Homebrew", "Store"]}}, {"geometry": {"type": "Point", "coordinates": [-90.6678496, 42.5035894]}, "type": "Feature", "id": null, "properties": {"rating": 3.75, "name": "Jubeck New World Brewing", "categories": ["Brewery", "Bar"]}}, {"geometry": {"type": "Point", "coordinates": [-90.663787, 42.495242]}, "type": "Feature", "id": null, "properties": {"rating": "null", "name": "Lot One", "categories": ["Bar", "Eatery"]}}, {"geometry": {"type": "Point", "coordinates": [-90.6674943, 42.4966545]}, "type": "Feature", "id": null, "properties": {"rating": 3.98, "name": "Monks Kaffee Pub", "categories": ["Bar"]}}, {"geometry": {"type": "Point", "coordinates": [-90.6640243, 42.4956687]}, "type": "Feature", "id": null, "properties": {"rating": 3.99, "name": "The Lift", "categories": ["Bar", "Eatery"]}}, {"geometry": {"type": "Point", "coordinates": [-91.4052537, 42.8552199]}, "type": "Feature", "id": null, "properties": {"rating": "null", "name": "Deb's Brewtopia", "categories": ["Homebrew", "Store"]}}, {"geometry": {"type": "Point", "coordinates": [-91.40393639999999, 42.8543329]}, "type": "Feature", "id": null, "properties": {"rating": 4.57, "name": "Schera's Algerian American Restaurant & Bar", "categories": ["Bar", "Eatery"]}}, {"geometry": {"type": "Point", "coordinates": [-91.310755, 40.63036899999999]}, "type": "Feature", "id": null, "properties": {"rating": 3.33, "name": "Lost Duck Brewing Company", "categories": ["Brewery", "Bar", "Eatery"]}}, {"geometry": {"type": "Point", "coordinates": [-95.7345122, 41.04772200000001]}, "type": "Feature", "id": null, "properties": {"rating": "null", "name": "Keg Creek Brewing Company", "categories": ["Brewery", "Bar"]}}, {"geometry": {"type": "Point", "coordinates": [-94.728577, 42.057121]}, "type": "Feature", "id": null, "properties": {"rating": 4.18, "name": "The Downtown Lounge", "categories": ["Bar"]}}, {"geometry": {"type": "Point", "coordinates": [-93.208361, 42.743305]}, "type": "Feature", "id": null, "properties": {"rating": 4.13, "name": "Rustic Brew", "categories": ["Brewery", "Bar", "Eatery"]}}, {"geometry": {"type": "Point", "coordinates": [-91.48229599999999, 41.6673858]}, "type": "Feature", "id": null, "properties": {"rating": 3.96, "name": "BlackStone Restaurant & Bar", "categories": ["Bar", "Eatery"]}}, {"geometry": {"type": "Point", "coordinates": [-91.53167769999999, 41.6587212]}, "type": "Feature", "id": null, "properties": {"rating": 3.72, "name": "Bread Garden Market", "categories": ["Store"]}}, {"geometry": {"type": "Point", "coordinates": [-91.50126709999999, 41.6660353]}, "type": "Feature", "id": null, "properties": {"rating": 3.46, "name": "Hy-Vee Drugstore", "categories": ["Store", "Homebrew", "Store"]}}, {"geometry": {"type": "Point", "coordinates": [-91.52946299999999, 41.6425749]}, "type": "Feature", "id": null, "properties": {"rating": 4.18, "name": "Hy-Vee Wine & Spirits - Iowa City #1", "categories": ["Store"]}}, {"geometry": {"type": "Point", "coordinates": [-91.5299034, 41.6633761]}, "type": "Feature", "id": null, "properties": {"rating": 4.63, "name": "John's Grocery Inc.", "categories": ["Store"]}}, {"geometry": {"type": "Point", "coordinates": [-91.53137029999999, 41.6631923]}, "type": "Feature", "id": null, "properties": {"rating": 4.28, "name": "Motley Cow Cafe", "categories": ["Bar", "Eatery"]}}, {"geometry": {"type": "Point", "coordinates": [-91.528421, 41.6605017]}, "type": "Feature", "id": null, "properties": {"rating": 3.05, "name": "New Pioneer Co-op", "categories": ["Store"]}}, {"geometry": {"type": "Point", "coordinates": [-91.5305168, 41.6546764]}, "type": "Feature", "id": null, "properties": {"rating": 3.8, "name": "Old Capitol Brew Works and Public House", "categories": ["Brewery", "Bar", "Eatery"]}}, {"geometry": {"type": "Point", "coordinates": [-91.5305209, 41.6563329]}, "type": "Feature", "id": null, "properties": {"rating": 4.44, "name": "Sanctuary Restaurant & Pub", "categories": ["Bar", "Eatery"]}}, {"geometry": {"type": "Point", "coordinates": [-91.5343556, 41.6606558]}, "type": "Feature", "id": null, "properties": {"rating": 4.0, "name": "Short's Burger & Shine", "categories": ["Bar", "Eatery"]}}, {"geometry": {"type": "Point", "coordinates": [-91.55361169999999, 41.65707740000001]}, "type": "Feature", "id": null, "properties": {"rating": "null", "name": "Stella", "categories": ["Bar", "Eatery"]}}, {"geometry": {"type": "Point", "coordinates": [-91.51157180000001, 41.64347799999999]}, "type": "Feature", "id": null, "properties": {"rating": "null", "name": "The Hobby Corner", "categories": ["Homebrew", "Store"]}}, {"geometry": {"type": "Point", "coordinates": [-91.5305704, 41.6545321]}, "type": "Feature", "id": null, "properties": {"rating": "null", "name": "Vine Tavern & Eatery", "categories": ["Bar", "Eatery"]}}, {"geometry": {"type": "Point", "coordinates": [-92.412992, 42.674064]}, "type": "Feature", "id": null, "properties": {"rating": "null", "name": "Briar Creek Brewery", "categories": ["Brewery"]}}, {"geometry": {"type": "Point", "coordinates": [-91.7076176, 41.4831331]}, "type": "Feature", "id": null, "properties": {"rating": 4.19, "name": "Kalona Brewing Company", "categories": ["Brewery", "Bar", "Eatery"]}}, {"geometry": {"type": "Point", "coordinates": [-91.402749, 40.415978]}, "type": "Feature", "id": null, "properties": {"rating": "null", "name": "Hy-Vee Wine & Spirits", "categories": ["Store"]}}, {"geometry": {"type": "Point", "coordinates": [-93.0988716, 41.3189537]}, "type": "Feature", "id": null, "properties": {"rating": 4.19, "name": "Peace Tree Brewing Co.", "categories": ["Brewery", "Bar", "Eatery"]}}, {"geometry": {"type": "Point", "coordinates": [-91.2179495, 43.3617893]}, "type": "Feature", "id": null, "properties": {"rating": 5.0, "name": "Safe House Saloon", "categories": ["Bar", "Eatery"]}}, {"geometry": {"type": "Point", "coordinates": [-96.1779068, 42.7763239]}, "type": "Feature", "id": null, "properties": {"rating": 4.94, "name": "Cork IT!", "categories": ["Store"]}}, {"geometry": {"type": "Point", "coordinates": [-90.3573849, 41.5866929]}, "type": "Feature", "id": null, "properties": {"rating": 3.75, "name": "Bier Stube Bar & Grill", "categories": ["Bar", "Eatery"]}}, {"geometry": {"type": "Point", "coordinates": [-95.441562, 41.175571]}, "type": "Feature", "id": null, "properties": {"rating": "null", "name": "CIB Brewery", "categories": ["Brewery"]}}, {"geometry": {"type": "Point", "coordinates": [-91.6115299, 42.0312969]}, "type": "Feature", "id": null, "properties": {"rating": 4.58, "name": "BIY Homebrew Supply", "categories": ["Homebrew", "Store"]}}, {"geometry": {"type": "Point", "coordinates": [-92.9146076, 42.0505119]}, "type": "Feature", "id": null, "properties": {"rating": 4.0, "name": "Iowa River Brewing Company", "categories": ["Brewery", "Bar"]}}, {"geometry": {"type": "Point", "coordinates": [-93.20167099999999, 43.151573]}, "type": "Feature", "id": null, "properties": {"rating": 4.36, "name": "1910 Grill\u00e9 / 1910 Lounge", "categories": ["Bar", "Eatery"]}}, {"geometry": {"type": "Point", "coordinates": [-93.2138839, 43.14774999999999]}, "type": "Feature", "id": null, "properties": {"rating": 3.73, "name": "Hy-Vee Drugstore / Wine & Spirits", "categories": ["Store"]}}, {"geometry": {"type": "Point", "coordinates": [-93.235424, 43.1493621]}, "type": "Feature", "id": null, "properties": {"rating": 4.2, "name": "Hy-Vee Wine & Spirits - Mason City #1", "categories": ["Store"]}}, {"geometry": {"type": "Point", "coordinates": [-93.1998179, 43.152061]}, "type": "Feature", "id": null, "properties": {"rating": "null", "name": "Mason City Brewing", "categories": ["Brewery", "Bar"]}}, {"geometry": {"type": "Point", "coordinates": [-91.1746572, 43.0246925]}, "type": "Feature", "id": null, "properties": {"rating": 3.54, "name": "Old Man River Restaurant", "categories": ["Brewery", "Bar", "Eatery"]}}, {"geometry": {"type": "Point", "coordinates": [-95.1483662, 43.35074609999999]}, "type": "Feature", "id": null, "properties": {"rating": 3.5, "name": "West O Beer", "categories": ["Brewery", "Bar"]}}, {"geometry": {"type": "Point", "coordinates": [-91.4179095, 41.9227585]}, "type": "Feature", "id": null, "properties": {"rating": 3.18, "name": "Devine Wines", "categories": ["Bar", "Eatery"]}}, {"geometry": {"type": "Point", "coordinates": [-91.0363362, 41.4505173]}, "type": "Feature", "id": null, "properties": {"rating": 3.57, "name": "Hy-Vee", "categories": ["Store"]}}, {"geometry": {"type": "Point", "coordinates": [-93.060109, 41.702683]}, "type": "Feature", "id": null, "properties": {"rating": "null", "name": "Madhouse Brewing Company", "categories": ["Brewery"]}}, {"geometry": {"type": "Point", "coordinates": [-93.14738299999999, 41.712683]}, "type": "Feature", "id": null, "properties": {"rating": "null", "name": "Van Houzen Brewing Company", "categories": ["Brewery"]}}, {"geometry": {"type": "Point", "coordinates": [-91.606901, 41.733533]}, "type": "Feature", "id": null, "properties": {"rating": "null", "name": "BIY Homebrew Supply", "categories": ["Homebrew", "Store"]}}, {"geometry": {"type": "Point", "coordinates": [-91.608389, 41.73814]}, "type": "Feature", "id": null, "properties": {"rating": 4.14, "name": "Johncy's Liquor Store", "categories": ["Store"]}}, {"geometry": {"type": "Point", "coordinates": [-91.599212, 41.750048]}, "type": "Feature", "id": null, "properties": {"rating": 4.35, "name": "Reds Alehouse", "categories": ["Bar", "Eatery"]}}, {"geometry": {"type": "Point", "coordinates": [-93.220492, 43.4440661]}, "type": "Feature", "id": null, "properties": {"rating": 4.22, "name": "Worth Brewing Company", "categories": ["Brewery", "Bar"]}}, {"geometry": {"type": "Point", "coordinates": [-96.04630929999999, 42.9960202]}, "type": "Feature", "id": null, "properties": {"rating": 4.42, "name": "Blue Mountain Lodge", "categories": ["Bar", "Eatery"]}}, {"geometry": {"type": "Point", "coordinates": [-92.64374819999999, 41.28945090000001]}, "type": "Feature", "id": null, "properties": {"rating": 4.63, "name": "The Cellar Peanut Pub", "categories": ["Bar", "Homebrew", "Store"]}}, {"geometry": {"type": "Point", "coordinates": [-92.4095178, 41.0154494]}, "type": "Feature", "id": null, "properties": {"rating": 3.83, "name": "Appanoose Rapids Brewing Company", "categories": ["Brewery", "Bar", "Eatery"]}}, {"geometry": {"type": "Point", "coordinates": [-92.4014892, 41.0263736]}, "type": "Feature", "id": null, "properties": {"rating": "null", "name": "Hy-Vee Drugstore / Wine & Spirits", "categories": ["Store"]}}, {"geometry": {"type": "Point", "coordinates": [-92.440085, 41.0154791]}, "type": "Feature", "id": null, "properties": {"rating": "null", "name": "Hy-Vee Wine & Spirits - Ottumwa #1", "categories": ["Store"]}}, {"geometry": {"type": "Point", "coordinates": [-92.7872829, 42.57726359999999]}, "type": "Feature", "id": null, "properties": {"rating": 4.35, "name": "BlueStem Winery", "categories": ["Homebrew", "Store"]}}, {"geometry": {"type": "Point", "coordinates": [-93.5194176, 41.59740439999999]}, "type": "Feature", "id": null, "properties": {"rating": 4.02, "name": "Hy-Vee Wine & Spirits", "categories": ["Store"]}}, {"geometry": {"type": "Point", "coordinates": [-92.59775400000001, 42.3255443]}, "type": "Feature", "id": null, "properties": {"rating": 3.46, "name": "Broad Street Brewing Company", "categories": ["Brewery", "Bar", "Eatery"]}}, {"geometry": {"type": "Point", "coordinates": [-93.8632356, 41.283938]}, "type": "Feature", "id": null, "properties": {"rating": 4.0, "name": "Twisted Vine Brewery", "categories": ["Brewery", "Bar"]}}, {"geometry": {"type": "Point", "coordinates": [-95.8314127, 43.1866761]}, "type": "Feature", "id": null, "properties": {"rating": 4.41, "name": "Hy-Vee", "categories": ["Store"]}}, {"geometry": {"type": "Point", "coordinates": [-95.3769919, 40.7649898]}, "type": "Feature", "id": null, "properties": {"rating": 2.84, "name": "The Depot Restaurant & Lounge", "categories": ["Brewery", "Bar", "Eatery"]}}, {"geometry": {"type": "Point", "coordinates": [-96.4201657, 42.5108928]}, "type": "Feature", "id": null, "properties": {"rating": 3.86, "name": "Charlie's Wine And Spirits", "categories": ["Store"]}}, {"geometry": {"type": "Point", "coordinates": [-96.41880499999999, 42.5204995]}, "type": "Feature", "id": null, "properties": {"rating": 3.64, "name": "Hy-Vee Wine & Spirits - Sioux City #1", "categories": ["Store"]}}, {"geometry": {"type": "Point", "coordinates": [-91.49554300000001, 41.806926]}, "type": "Feature", "id": null, "properties": {"rating": 4.13, "name": "Big Grove Brewery", "categories": ["Brewery", "Bar", "Eatery"]}}, {"geometry": {"type": "Point", "coordinates": [-95.1264042, 43.4056514]}, "type": "Feature", "id": null, "properties": {"rating": "null", "name": "Okoboji Brewing Company", "categories": ["Brewery"]}}, {"geometry": {"type": "Point", "coordinates": [-93.75675969999999, 41.6323477]}, "type": "Feature", "id": null, "properties": {"rating": 4.22, "name": "Beer Crazy", "categories": ["Store", "Homebrew", "Store"]}}, {"geometry": {"type": "Point", "coordinates": [-92.38998, 42.500706]}, "type": "Feature", "id": null, "properties": {"rating": 2.44, "name": "Beck's Sports Brewery", "categories": ["Brewery", "Bar", "Eatery"]}}, {"geometry": {"type": "Point", "coordinates": [-92.35696899999999, 42.4701029]}, "type": "Feature", "id": null, "properties": {"rating": 3.59, "name": "Hy-Vee Wine & Spirits", "categories": ["Store"]}}, {"geometry": {"type": "Point", "coordinates": [-92.3375593, 42.5295172]}, "type": "Feature", "id": null, "properties": {"rating": 3.65, "name": "Hy-Vee Wine & Spirits - Waterloo #2", "categories": ["Store"]}}, {"geometry": {"type": "Point", "coordinates": [-92.377364, 42.49971499999999]}, "type": "Feature", "id": null, "properties": {"rating": 4.35, "name": "Lava Lounge", "categories": ["Bar", "Eatery"]}}, {"geometry": {"type": "Point", "coordinates": [-93.86980799999999, 41.613364]}, "type": "Feature", "id": null, "properties": {"rating": "null", "name": "Mickey's Irish Pub", "categories": ["Bar", "Eatery"]}}, {"geometry": {"type": "Point", "coordinates": [-92.4739419, 42.712217]}, "type": "Feature", "id": null, "properties": {"rating": 3.0, "name": "Hy-Vee", "categories": ["Store"]}}, {"geometry": {"type": "Point", "coordinates": [-91.346435, 41.671419]}, "type": "Feature", "id": null, "properties": {"rating": "null", "name": "Brick Arch Winery", "categories": ["Bar"]}}, {"geometry": {"type": "Point", "coordinates": [-91.3467335, 41.6610883]}, "type": "Feature", "id": null, "properties": {"rating": "null", "name": "Secrets Sports Bar", "categories": ["Bar"]}}, {"geometry": {"type": "Point", "coordinates": [-93.759709, 41.5985218]}, "type": "Feature", "id": null, "properties": {"rating": 2.93, "name": "Cost Plus World Market", "categories": ["Store"]}}, {"geometry": {"type": "Point", "coordinates": [-93.80335219999999, 41.5661314]}, "type": "Feature", "id": null, "properties": {"rating": "null", "name": "Fleming's Prime Steakhouse & Wine Bar", "categories": ["Bar", "Eatery"]}}, {"geometry": {"type": "Point", "coordinates": [-93.710661, 41.57235499999999]}, "type": "Feature", "id": null, "properties": {"rating": 2.74, "name": "Heartland Homebrew Supply", "categories": ["Homebrew", "Store"]}}, {"geometry": {"type": "Point", "coordinates": [-93.80784369999999, 41.5980507]}, "type": "Feature", "id": null, "properties": {"rating": 3.38, "name": "Hy-Vee - West Des Moines #3", "categories": ["Store"]}}, {"geometry": {"type": "Point", "coordinates": [-93.72948629999999, 41.5709196]}, "type": "Feature", "id": null, "properties": {"rating": 3.69, "name": "Hy-Vee Wine & Spirits - West Des Moines #2", "categories": ["Store"]}}, {"geometry": {"type": "Point", "coordinates": [-93.77193899999999, 41.590925]}, "type": "Feature", "id": null, "properties": {"rating": 3.63, "name": "Ingersoll Wine Merchants", "categories": ["Store"]}}, {"geometry": {"type": "Point", "coordinates": [-93.435148, 41.6006825]}, "type": "Feature", "id": null, "properties": {"rating": 3.84, "name": "Rock Bottom Restaurant & Brewery", "categories": ["Brewery", "Bar", "Eatery"]}}, {"geometry": {"type": "Point", "coordinates": [-93.7937544, 41.5597182]}, "type": "Feature", "id": null, "properties": {"rating": 3.5, "name": "Vintage Wine & Spirits", "categories": ["Store"]}}, {"geometry": {"type": "Point", "coordinates": [-93.7823665, 41.55921439999999]}, "type": "Feature", "id": null, "properties": {"rating": 4.25, "name": "WineStyles of West Glen", "categories": ["Bar", "Eatery", "Store"]}}, {"geometry": {"type": "Point", "coordinates": [-95.1483662, 43.35074609999999]}, "type": "Feature", "id": null, "properties": {"rating": "null", "name": "West O Beer", "categories": ["Brewery", "Bar"]}}, {"geometry": {"type": "Point", "coordinates": [-93.7238804, 41.6142651]}, "type": "Feature", "id": null, "properties": {"rating": "null", "name": "Wine & Spirits Gallery", "categories": ["Store"]}}, {"geometry": {"type": "Point", "coordinates": [-95.7020307, 41.7371213]}, "type": "Feature", "id": null, "properties": {"rating": 3.86, "name": "Brick Street Brewing Company", "categories": ["Brewery", "Bar"]}}]}